{"events":[{"location":{"lat":"51.33006","lon":"6.58095","street":"Dießemer Str. 13","zip":"47799","city":"Krefeld","country":"DE","name":"Kulturfabrik"},"name":"Aktionsbühne","description":"verschiedene Nachwuchskünstler präsentieren sich","category":"Konzerte","time_start":"2016-07-20T20:00:00+0200","photo":[],"website":"http://www.coolibri.de/veranstaltungen/20.07.16/aktionsb%c3%bchne--/1650404.html"},{"location":{"lat":"51.2261","lon":"6.77445","street":"Bolkerstr. 41–47","zip":"40213","city":"Düsseldorf","country":"DE","name":"Hausbrauerei Zum Schlüssel"},"name":"Booster","description":"​anschließend Party mit dem DJ-Team Steven-K","category":"Konzerte","time_start":"2016-07-20T19:00:00+0200","photo":[],"website":"http://www.coolibri.de/veranstaltungen/20.07.16/booster--/1682951.html"},{"location":{"lat":"50.95649","lon":"6.9615","street":"Neusser Wall 33","zip":"50670","city":"Köln","country":"DE","name":"Fort X"},"name":"Der singende Biergarten","description":"Lagerfeuersongs","category":"Konzerte","time_start":"2016-07-20T19:00:00+0200","photo":[],"website":"http://www.coolibri.de/veranstaltungen/20.07.16/der-singende-biergarten--/1671698.html"},{"location":{"lat":"51.22777","lon":"6.763372","street":"Rheinwiesen","zip":"40545","city":"Düsseldorf","country":"DE","name":"Schlösser-Zelt-Rheinkirmes"},"name":"Diamond Soundsystem","description":"mit Faiz Mangat & Benjamin Rose","category":"Konzerte","time_start":"2016-07-20T19:30:00+0200","photo":[],"website":"http://www.coolibri.de/veranstaltungen/20.07.16/diamond-soundsystem--/1681690.html"},{"location":{"lat":"51.51162","lon":"7.44149","street":"Adlerstr. 59","zip":"44137","city":"Dortmund","country":"DE","name":"Kiosk Adler 59"},"name":"Die Verwechslung","description":"Pop, Free Jazz, Avantgarde, Trash, Gäste: Johannes Nebel (b) & Simon Camatta (dr)","category":"Konzerte","time_start":"2016-07-20T19:00:00+0200","photo":[],"website":"http://www.coolibri.de/veranstaltungen/20.07.16/die-verwechslung--/1651794.html"},{"location":{"lat":"51.56575","lon":"8.10785","street":"Ulrichertor 4","zip":"59494","city":"Soest","country":"DE","name":"Alter Schlachthof"},"name":"Easy Jazz","description":"","category":"Konzerte","time_start":"2016-07-20T20:00:00+0200","photo":[],"website":"http://www.coolibri.de/veranstaltungen/20.07.16/easy-jazz--/1675093.html"},{"location":{"lat":"51.350678","lon":"7.457297","street":"Eugen-Richter-Str. 21","zip":"58089","city":"Hagen","country":"DE","name":"Oller Dreisch"},"name":"Egon Müller","description":"","category":"Konzerte","time_start":"2016-07-20T15:00:00+0200","photo":[],"website":"http://www.coolibri.de/veranstaltungen/20.07.16/egon-m%c3%bcller--/1690145.html"},{"location":{"lat":"50.99877","lon":"6.93934","street":"Neusser Landstr. 2","zip":"50735","city":"Köln","country":"DE","name":"Kantine"},"name":"George Clinton & Parliament Funkadelic","description":"","category":"Konzerte","time_start":"2016-07-20T20:00:00+0200","photo":[],"website":"http://www.coolibri.de/veranstaltungen/20.07.16/george-clinton-parliament-funkadelic--/1613707.html"},{"location":{"lat":"51.226954","lon":"6.773571","street":"Mertensgasse","zip":"40213","city":"Düsseldorf","country":"DE","name":"Em Pöötzke"},"name":"Havana Open","description":"kubanische Musik","category":"Konzerte","time_start":"2016-07-20T21:00:00+0200","photo":[],"website":"http://www.coolibri.de/veranstaltungen/20.07.16/havana-open--/1675098.html"},{"location":{"lat":"51.1124","lon":"6.948","street":"","zip":"40764","city":"Langenfeld","country":"DE","name":"Marktplatz"},"name":"Juri","description":"","category":"Konzerte","time_start":"2016-07-20T18:00:00+0200","photo":[],"website":"http://www.coolibri.de/veranstaltungen/20.07.16/juri--/1645175.html"},{"location":{"lat":"51.359661","lon":"7.469534","street":"Karl-Marx-Str.","zip":"58095","city":"Hagen","country":"DE","name":"Volkspark"},"name":"La Mambanegra","description":"Salsa, Support: Negisa Blumenstein / Konzertmuschel","category":"Konzerte","time_start":"2016-07-20T19:30:00+0200","photo":[],"website":"http://www.coolibri.de/veranstaltungen/20.07.16/la-mambanegra--/1650403.html"},{"location":{"lat":"50.949","lon":"6.91309","street":"Grüner Weg 2","zip":"50825","city":"Köln","country":"DE","name":"Barinton"},"name":"Latin Session / Descarga","description":"","category":"Konzerte","time_start":"2016-07-20T21:00:00+0200","photo":[],"website":"http://www.coolibri.de/veranstaltungen/20.07.16/latin-session-descarga--/1677839.html"},{"location":{"lat":"51.373228","lon":"7.719814","street":"Im Wiesengrund 90","zip":"58636","city":"Iserlohn","country":"DE","name":"Erlöserkirche"},"name":"McAllister & Agnew + Andrew Zohn + Roland Dyens","description":"Gitarrenmusik","category":"Konzerte","time_start":"2016-07-20T19:30:00+0200","photo":[],"website":"http://www.coolibri.de/veranstaltungen/20.07.16/mcallister-agnew-andrew-zohn--/1630134.html"},{"location":{"lat":"51.47426","lon":"7.21275","street":"Konrad-Adenauer-Platz 3","zip":"44787","city":"Bochum","country":"DE","name":"Riff"},"name":"New York Nights","description":"Coversongs aus 4 Jahrzehnten mit Pamela Falcon & Band","category":"Konzerte","time_start":"2016-07-20T20:00:00+0200","photo":[],"website":"http://www.coolibri.de/veranstaltungen/20.07.16/new-york-nights--/1675092.html"},{"location":{"lat":"51.45815","lon":"7.01303","street":"Viehofer Platz 2","zip":"45127","city":"Essen","country":"DE","name":"Don't Panic"},"name":"Nine Treasures","description":"Folk Metal (CN)","category":"Konzerte","time_start":"2016-07-20T19:00:00+0200","photo":[],"website":"http://www.coolibri.de/veranstaltungen/20.07.16/nine-treasures--/1674024.html"},{"location":{"lat":"50.93009","lon":"6.93857","street":"Zülpicher Str. 10","zip":"50674","city":"Köln","country":"DE","name":"MTC"},"name":"Nocturnal Bloodlust","description":"","category":"Konzerte","time_start":"2016-07-20T20:00:00+0200","photo":[],"website":"http://www.coolibri.de/veranstaltungen/20.07.16/nocturnal-bloodlust--/1670093.html"},{"location":{"lat":"51.421477","lon":"6.886881","street":"Dimbeck 2a","zip":"45470","city":"Mülheim","country":"DE","name":"Freilichtbühne"},"name":"Opportunity","description":"Soul, Funk, Blues, Country","category":"Konzerte","time_start":"2016-07-20T20:00:00+0200","photo":[],"website":"http://www.coolibri.de/veranstaltungen/20.07.16/opportunity--/1672622.html"},{"location":{"lat":"51.333608","lon":"6.589375","street":"Oppumer Str. 175","zip":"47799","city":"Krefeld","country":"DE","name":"Kulturrampe"},"name":"SKAmpida","description":"","category":"Konzerte","time_start":"2016-07-20T20:30:00+0200","photo":[],"website":"http://www.coolibri.de/veranstaltungen/20.07.16/skampida--/1650405.html"},{"location":{"lat":"50.949","lon":"6.9074","street":"Oskar-Jäger-Str. 190","zip":"50825","city":"Köln","country":"DE","name":"Sonic Ballroom"},"name":"SMZB + Helicopteri","description":"Punkrock","category":"Konzerte","time_start":"2016-07-20T21:00:00+0200","photo":[],"website":"http://www.coolibri.de/veranstaltungen/20.07.16/smzb-helicopteri--/1677838.html"},{"location":{"lat":"51.446151","lon":"7.262489","street":"Universitätsstr. 150","zip":"44801","city":"Bochum","country":"DE","name":"KulturCafé"},"name":"Wohnzimmerakustik","description":"mit Jules Cachecoeur und Yvonne Ringsdorf","category":"Konzerte","time_start":"2016-07-20T20:00:00+0200","photo":[],"website":"http://www.coolibri.de/veranstaltungen/20.07.16/wohnzimmerakustik--/1671699.html"},{"location":{"lat":"51.52164","lon":"7.448681","street":"Gneisenaustr. 55","zip":"44147","city":"Dortmund","country":"DE","name":"Rekorder"},"name":"​Sessionmacher + Opek + Triple Crown","description":"Hip-Hop","category":"Konzerte","time_start":"2016-07-20T21:00:00+0200","photo":[],"website":"http://www.coolibri.de/veranstaltungen/20.07.16/%e2%80%8bsessionmacher-opek-triple--/1690146.html"},{"location":{"lat":"51.46068","lon":"7.01335","street":"Pferdemarkt 2–4","zip":"45127","city":"Essen","country":"DE","name":"Adiamo"},"name":"After-Job-Party","description":"House, Charts, R&B","category":"Party","time_start":"2016-07-20T19:00:00+0200","photo":[],"website":"http://www.coolibri.de/veranstaltungen/20.07.16/after-job-party--/1638989.html"},{"location":{"lat":"51.47426","lon":"7.21275","street":"Konrad-Adenauer-Platz 3","zip":"44787","city":"Bochum","country":"DE","name":"Riff"},"name":"Angedockt","description":"","category":"Party","time_start":"2016-07-20T23:00:00+0200","photo":[],"website":"http://www.coolibri.de/veranstaltungen/20.07.16/angedockt--/1675097.html"},{"location":{"lat":"51.531335","lon":"7.185964","street":"Dorstener Straße 253","zip":"44653","city":"Herne","country":"DE","name":"Ego Erlebnisreich"},"name":"Blind Date Maskenball","description":"für Paare und Singles (m/w), ego24.de","category":"Party","time_start":"2016-07-20T20:00:00+0200","photo":[],"website":"http://www.coolibri.de/veranstaltungen/20.07.16/blind-date-maskenball--/1674028.html"},{"location":{"lat":"51.227285","lon":"6.773543","street":"Mertengasse 2","zip":"40213","city":"Düsseldorf","country":"DE","name":"El Papagayo Club"},"name":"Carpe Noctem","description":"musikalischer Mix","category":"Party","time_start":"2016-07-20T20:00:00+0200","photo":[],"website":"http://www.coolibri.de/veranstaltungen/20.07.16/carpe-noctem--/1675096.html"},{"location":{"lat":"50.94219","lon":"6.94072","street":"Hohenzollernring 92","zip":"50672","city":"Köln","country":"DE","name":"Loom"},"name":"celebrate!","description":"Dance Classics, Mainstream, Charts, Pop und House / für Schwule, Lesben & Friends","category":"Party","time_start":"2016-07-20T22:00:00+0200","photo":[],"website":"http://www.coolibri.de/veranstaltungen/20.07.16/celebrate---/1674034.html"},{"location":{"lat":"50.93471","lon":"6.9409","street":"Schaafenstr. 51","zip":"50676","city":"Köln","country":"DE","name":"Die Mumu"},"name":"celebrate! Vorglühen","description":"","category":"Party","time_start":"2016-07-20T20:00:00+0200","photo":[],"website":"http://www.coolibri.de/veranstaltungen/20.07.16/celebrate-vorgl%c3%bchen--/1675100.html"},{"location":{"lat":"51.49265","lon":"7.45334","street":"Strobelallee 50","zip":"44139","city":"Dortmund","country":"DE","name":"Strobels"},"name":"Club 30","description":"Rock, Pop, Soul und Funk mit DJ Uwe Meyer und Gästen","category":"Party","time_start":"2016-07-20T19:00:00+0200","photo":[],"website":"http://www.coolibri.de/veranstaltungen/20.07.16/club-30--/1672625.html"},{"location":{"lat":"51.03187","lon":"6.98773","street":"Friedrich-Ebert-Platz 5","zip":"51373","city":"Leverkusen","country":"DE","name":"Shadow"},"name":"Culture Club","description":"Pop, Dark, Wave, Indie, 80s, 90s, Rock, Kultclassics mit DJ Dalecooper","category":"Party","time_start":"2016-07-20T20:00:00+0200","photo":[],"website":"http://www.coolibri.de/veranstaltungen/20.07.16/culture-club--/1670092.html"},{"location":{"lat":"51.22522","lon":"6.80924","street":"Albertstr. 113","zip":"40233","city":"Düsseldorf","country":"DE","name":"Prinz Albert Bar"},"name":"Electronic Wednesday","description":"mit Tom Werres","category":"Party","time_start":"2016-07-20T22:00:00+0200","photo":[],"website":"http://www.coolibri.de/veranstaltungen/20.07.16/electronic-wednesday--/1674027.html"},{"location":{"lat":"51.227323","lon":"6.76026","street":"Kaiser-Wilhelm-Ring","zip":"40545","city":"Düsseldorf","country":"DE","name":"Frankenheim Festzelt"},"name":"Halbangst","description":"","category":"Party","time_start":"2016-07-20T20:00:00+0200","photo":[],"website":"http://www.coolibri.de/veranstaltungen/20.07.16/halbangst--/1682950.html"},{"location":{"lat":"51.22619","lon":"6.774089","street":"Bolkerstr. 35","zip":"40213","city":"Düsseldorf","country":"DE","name":"Kuhstall"},"name":"Hustle Night","description":"Black, House, Charts & Party Hits mit DJ Big M & Friends","category":"Party","time_start":"2016-07-20T17:00:00+0200","photo":[],"website":"http://www.coolibri.de/veranstaltungen/20.07.16/hustle-night--/1667332.html"},{"location":{"lat":"51.24618","lon":"7.13369","street":"Viehhofstr. 120a","zip":"42117","city":"Wuppertal","country":"DE","name":"Café Tango"},"name":"Libertango","description":"offener Tangosalon","category":"Party","time_start":"2016-07-20T21:00:00+0200","photo":[],"website":"http://www.coolibri.de/veranstaltungen/20.07.16/libertango--/1356953.html"},{"location":{"lat":"51.22621","lon":"6.77334","street":"Bolkerstr. 14","zip":"40213","city":"Düsseldorf","country":"DE","name":"Sub"},"name":"Mittwochssubing","description":"Party Classics, Urban Hits, House mit DJs David Christopher & Aaron Hix","category":"Party","time_start":"2016-07-20T21:00:00+0200","photo":[],"website":"http://www.coolibri.de/veranstaltungen/20.07.16/mittwochssubing--/1667333.html"},{"location":{"lat":"50.92779","lon":"6.93995","street":"Luxemburger Str. 32","zip":"50674","city":"Köln","country":"DE","name":"Blue Shell"},"name":"Mixties","description":"mit Caroline Crystalline","category":"Party","time_start":"2016-07-20T23:00:00+0200","photo":[],"website":"http://www.coolibri.de/veranstaltungen/20.07.16/mixties--/1676598.html"},{"location":{"lat":"50.99877","lon":"6.93934","street":"Neusser Landstr. 2","zip":"50735","city":"Köln","country":"DE","name":"Kantine"},"name":"My Generation","description":"Ü30","category":"Party","time_start":"2016-07-20T20:00:00+0200","photo":[],"website":"http://www.coolibri.de/veranstaltungen/20.07.16/my-generation--/1677840.html"},{"location":{"lat":"51.26505","lon":"7.14679","street":"Wiesenstr. 6","zip":"42105","city":"Wuppertal","country":"DE","name":"Café Ada"},"name":"Salsacafé","description":"Tanzabend mit DJ Alessa","category":"Party","time_start":"2016-07-20T20:00:00+0200","photo":[],"website":"http://www.coolibri.de/veranstaltungen/20.07.16/salsacaf%c3%a9--/1356952.html"},{"location":{"lat":"50.937597","lon":"6.939495","street":"Hohenzollernring 16-18","zip":"50672","city":"Köln","country":"DE","name":"Vanity Club"},"name":"Student’s Delight","description":"Hip-Hop, House, Charts und Feiermusik","category":"Party","time_start":"2016-07-20T22:00:00+0200","photo":[],"website":"http://www.coolibri.de/veranstaltungen/20.07.16/student%e2%80%99s-delight--/1687587.html"},{"location":{"lat":"51.26041","lon":"7.13761","street":"Brunnenstr. 31","zip":"42281","city":"Wuppertal","country":"DE","name":"Chili Royal"},"name":"Susi & Strolch DJ Team","description":"mit Indie, Alternative, Punk, Rock","category":"Party","time_start":"2016-07-20T20:00:00+0200","photo":[],"website":"http://www.coolibri.de/veranstaltungen/20.07.16/susi-strolch-dj-team--/1594696.html"},{"location":{"lat":"51.225827","lon":"6.776053","street":"Neustr. 51","zip":"40231","city":"Düsseldorf","country":"DE","name":"Schickimicki"},"name":"Tohuwabohu","description":"Hip-Hop & Rock vs. Trash & Bumspop","category":"Party","time_start":"2016-07-20T21:00:00+0200","photo":[],"website":"http://www.coolibri.de/veranstaltungen/20.07.16/tohuwabohu--/1669206.html"},{"location":{"lat":"51.22362","lon":"6.79939","street":"Erkrather Str. 30","zip":"40233","city":"Düsseldorf","country":"DE","name":"tanzhaus nrw"},"name":"​Noche de la Salsa","description":"mit DJ Francesco","category":"Party","time_start":"2016-07-20T21:15:00+0200","photo":[],"website":"http://www.coolibri.de/veranstaltungen/20.07.16/%e2%80%8bnoche-de-la-salsa--/1675094.html"},{"location":{"lat":"51.51915","lon":"7.28213","street":"Lothringer Str. 36c","zip":"44805","city":"Bochum","country":"DE","name":"Zauberkasten"},"name":"Der Obel: Obel-Packung","description":"","category":"Comedy & Co.","time_start":"2016-07-20T20:00:00+0200","photo":[],"website":"http://www.coolibri.de/veranstaltungen/20.07.16/der-obel-obel-packung--/1676597.html"},{"location":{"lat":"50.93265","lon":"6.93547","street":"Roonstr. 78","zip":"50674","city":"Köln","country":"DE","name":"Atelier Theater"},"name":"Gratis und nicht umsonst","description":"","category":"Comedy & Co.","time_start":"2016-07-20T21:30:00+0200","photo":[],"website":"http://www.coolibri.de/veranstaltungen/20.07.16/gratis-und-nicht-umsonst--/1614489.html"},{"location":{"lat":"51.56162","lon":"6.730881","street":"Althoffstr. 4","zip":"46535","city":"Dinslaken","country":"DE","name":"Burgtheater"},"name":"Kai Magnus Sting: Immer ist was, weil sonst wär ja nix","description":"","category":"Comedy & Co.","time_start":"2016-07-20T20:00:00+0200","photo":[],"website":"http://www.coolibri.de/veranstaltungen/20.07.16/kai-magnus-sting-immer-ist-was---/1492176.html"},{"location":{"lat":"51.496921","lon":"7.459112","street":"Rheinlanddamm / Ardeystr.","zip":"44139","city":"Dortmund","country":"DE","name":"Spiegelzelt"},"name":"Kumpelabend","description":"mit Peter Freiberg, Thomas Koch, Peter Krettek","category":"Comedy & Co.","time_start":"2016-07-20T20:00:00+0200","photo":[],"website":"http://www.coolibri.de/veranstaltungen/20.07.16/kumpelabend--/1582778.html"},{"location":{"lat":"51.2045","lon":"6.80825","street":"Siegburger Str. 25","zip":"40591","city":"Düsseldorf","country":"DE","name":"Biergarten Vier Linden"},"name":"Kunst gegen Bares","description":"offene Bühne, Moderation: Lasse Samström / Open Air","category":"Comedy & Co.","time_start":"2016-07-20T20:00:00+0200","photo":[],"website":"http://www.coolibri.de/veranstaltungen/20.07.16/kunst-gegen-bares--/1645176.html"},{"location":{"lat":"50.94055","lon":"6.96146","street":"Bischofsgartenstr. 1","zip":"50667","city":"Köln","country":"DE","name":"Philharmonie"},"name":"Ballet Revolución","description":"","category":"Musical & Show","time_start":"2016-07-20T20:00:00+0200","photo":[],"website":"http://www.coolibri.de/veranstaltungen/20.07.16/ballet-revoluci%c3%b3n--/1613708.html"},{"location":{"lat":"50.9432","lon":"6.9618","street":"Goldgasse 1","zip":"50668","city":"Köln","country":"DE","name":"Musical Dome"},"name":"Bodyguard – Das Musical","description":"","category":"Musical & Show","time_start":"2016-07-20T18:30:00+0200","photo":[],"website":"http://www.coolibri.de/veranstaltungen/20.07.16/bodyguard-das-musical--/1545738.html"},{"location":{"lat":"51.49144","lon":"6.88536","street":"Musikweg 1","zip":"46047","city":"Oberhausen","country":"DE","name":"Metronom Theater"},"name":"Das Phantom der Oper","description":"","category":"Musical & Show","time_start":"2016-07-20T18:30:00+0200","photo":[],"website":"http://www.coolibri.de/veranstaltungen/20.07.16/das-phantom-der-oper--/1675099.html"},{"location":{"lat":"51.499552","lon":"7.258796","street":"Castroper Str. 67","zip":"44791","city":"Bochum","country":"DE","name":"Zeiss-Planetarium"},"name":"Expedition Sternenhimmel","description":"Astronomieshow","category":"Musical & Show","time_start":"2016-07-20T16:30:00+0200","photo":[],"website":"http://www.coolibri.de/veranstaltungen/20.07.16/expedition-sternenhimmel--/1674031.html"},{"location":{"lat":"51.499552","lon":"7.258796","street":"Castroper Str. 67","zip":"44791","city":"Bochum","country":"DE","name":"Zeiss-Planetarium"},"name":"Faszinierendes Weltall","description":"Reise durch den Kosmos","category":"Musical & Show","time_start":"2016-07-20T11:30:00+0200","photo":[],"website":"http://www.coolibri.de/veranstaltungen/20.07.16/faszinierendes-weltall--/1674032.html"},{"location":{"lat":"51.499552","lon":"7.258796","street":"Castroper Str. 67","zip":"44791","city":"Bochum","country":"DE","name":"Zeiss-Planetarium"},"name":"Floating Universe","description":"mit Musik von Schiller","category":"Musical & Show","time_start":"2016-07-20T20:15:00+0200","photo":[],"website":"http://www.coolibri.de/veranstaltungen/20.07.16/floating-universe--/1674021.html"},{"location":{"lat":"50.9398","lon":"6.96009","street":"Große Neugasse 2–4","zip":"50667","city":"Köln","country":"DE","name":"Senftöpfchen"},"name":"La Fable","description":"Stephan Masurs Varietéspektakel","category":"Musical & Show","time_start":"2016-07-20T20:15:00+0200","photo":[],"website":"http://www.coolibri.de/veranstaltungen/20.07.16/la-fable--/1621784.html"},{"location":{"lat":"51.49253","lon":"7.23413","street":"Stadionring 24","zip":"44791","city":"Bochum","country":"DE","name":"Starlight Express Theater"},"name":"Starlight Express","description":"Musical von A. L. Webber","category":"Musical & Show","time_start":"2016-07-20T18:30:00+0200","photo":[],"website":"http://www.coolibri.de/veranstaltungen/20.07.16/starlight-express--/1648856.html"},{"location":{"lat":"51.499552","lon":"7.258796","street":"Castroper Str. 67","zip":"44791","city":"Bochum","country":"DE","name":"Zeiss-Planetarium"},"name":"Stars und Sterne","description":"Hits aus Pop & Rock mit Weltraumkulisse","category":"Musical & Show","time_start":"2016-07-20T19:00:00+0200","photo":[],"website":"http://www.coolibri.de/veranstaltungen/20.07.16/stars-und-sterne--/1674022.html"},{"location":{"lat":"51.499552","lon":"7.258796","street":"Castroper Str. 67","zip":"44791","city":"Bochum","country":"DE","name":"Zeiss-Planetarium"},"name":"Vom Urknall zum Menschen","description":"astronomische Zeitreise","category":"Musical & Show","time_start":"2016-07-20T15:15:00+0200","photo":[],"website":"http://www.coolibri.de/veranstaltungen/20.07.16/vom-urknall-zum-menschen--/1674030.html"},{"location":{"lat":"50.92064","lon":"6.95536","street":"Vondelstr. 4–8","zip":"50677","city":"Köln","country":"DE","name":"Comedia"},"name":"Eisenofen","description":"mit dem Enemble Theaterkönig","category":"Theater & Tanz","time_start":"2016-07-20T19:30:00+0200","photo":[],"website":"http://www.coolibri.de/veranstaltungen/20.07.16/eisenofen--/1680682.html"},{"location":{"lat":"50.935739","lon":"6.939877","street":"Habsburgerring 18–20","zip":"50674","city":"Köln","country":"DE","name":"Volksbühne am Rudolfplatz"},"name":"Hanna Schygulla – 17/71 – Eine Zeitreise","description":"Hannah Schygulla denkt an Rainer Werner Fassbinder","category":"Theater & Tanz","time_start":"2016-07-20T20:30:00+0200","photo":[],"website":"http://www.coolibri.de/veranstaltungen/20.07.16/hanna-schygulla-17-71-eine--/1638988.html"},{"location":{"lat":"51.22282","lon":"6.78327","street":"Steinstr. 23","zip":"40210","city":"Düsseldorf","country":"DE","name":"Komödie"},"name":"Landeier oder Bauern suchen Frauen","description":"Komödie von Frederik Holtkamp","category":"Theater & Tanz","time_start":"2016-07-20T20:00:00+0200","photo":[],"website":"http://www.coolibri.de/veranstaltungen/20.07.16/landeier-oder-bauern-suchen-frauen--/1663883.html"},{"location":{"lat":"51.679327","lon":"7.822471","street":"Ostring","zip":"59065","city":"Hamm","country":"DE","name":"Musikpavillon"},"name":"Liebe","description":"mit dem Theater Neue Volksbühne Köln","category":"Theater & Tanz","time_start":"2016-07-20T20:00:00+0200","photo":[],"website":"http://www.coolibri.de/veranstaltungen/20.07.16/liebe--/1674025.html"},{"location":{"lat":"51.22631","lon":"6.77458","street":"Bolkerstr. 36","zip":"40213","city":"Düsseldorf","country":"DE","name":"Neanderkirche"},"name":"Sommerliche Orgelkonzerte","description":"mit Thorsten Göbel","category":"Oper & Klassik","time_start":"2016-07-20T18:30:00+0200","photo":[],"website":"http://www.coolibri.de/veranstaltungen/20.07.16/sommerliche-orgelkonzerte--/1644387.html"},{"location":{"lat":"51.54177","lon":"6.93088","street":"An Liebfrauen 8","zip":"46240","city":"Bottrop","country":"DE","name":"Liebfrauenkirche"},"name":"Sommerliche Orgelkonzerte","description":"","category":"Oper & Klassik","time_start":"2016-07-20T19:30:00+0200","photo":[],"website":"http://www.coolibri.de/veranstaltungen/20.07.16/sommerliche-orgelkonzerte--/1686261.html"},{"location":{"lat":"51.22628","lon":"6.78099","street":"Schadowplatz 14","zip":"40212","city":"Düsseldorf","country":"DE","name":"Haus der Universität"},"name":"Cute 21st-Century Post-Fem-Bots","description":"Vortrag mit Dr. Julia Leyda","category":"Vortrag & Lesung","time_start":"2016-07-20T16:30:00+0200","photo":[],"website":"http://www.coolibri.de/veranstaltungen/20.07.16/cute-21st-century-post-fem-bots--/1622334.html"},{"location":{"lat":"51.56496","lon":"7.17889","street":"Karlstraße 75","zip":"45661","city":"Recklinghausen","country":"DE","name":"Maschinenhaus Hochlarmark"},"name":"Die Sonne trifft den Vollmond","description":"Vortrag von Burkard Steinrücken","category":"Vortrag & Lesung","time_start":"2016-07-20T20:00:00+0200","photo":[],"website":"http://www.coolibri.de/veranstaltungen/20.07.16/die-sonne-trifft-den-vollmond--/1666661.html"},{"location":{"lat":"51.53979","lon":"7.2202","street":"Bebelstr. 18","zip":"44623","city":"Herne","country":"DE","name":"Alte Druckerei"},"name":"Endgültig","description":"Krimilesung mit Andreas Pflüger","category":"Vortrag & Lesung","time_start":"2016-07-20T20:00:00+0200","photo":[],"website":"http://www.coolibri.de/veranstaltungen/20.07.16/endg%c3%bcltig--/1676595.html"},{"location":{"lat":"51.433","lon":"6.88031","street":"Auerstr. 51","zip":"45468","city":"Mülheim","country":"DE","name":"AZ"},"name":"Kapitalismus, Krise, Behinderung – Ein Streifzug durch die (deutsche) Geschichte","description":"Vortrag von Michael Zander","category":"Vortrag & Lesung","time_start":"2016-07-20T19:30:00+0200","photo":[],"website":"http://www.coolibri.de/veranstaltungen/20.07.16/kapitalismus-krise-behinderung--/1642073.html"},{"location":{"lat":"51.1985","lon":"6.43863","street":"Bismarckstr. 97-99","zip":"41061","city":"Mönchengladbach","country":"DE","name":"BIS"},"name":"LesARTen","description":"Literaturforum zum Zuhören und Mitmachen","category":"Vortrag & Lesung","time_start":"2016-07-20T20:00:00+0200","photo":[],"website":"http://www.coolibri.de/veranstaltungen/20.07.16/lesarten--/1669207.html"},{"location":{"lat":"51.22628","lon":"6.78099","street":"Schadowplatz 14","zip":"40212","city":"Düsseldorf","country":"DE","name":"Haus der Universität"},"name":"Literaturkritik und Weltliteratur","description":"Meisterklasse mit Sigrid Löffler","category":"Vortrag & Lesung","time_start":"2016-07-20T19:00:00+0200","photo":[],"website":"http://www.coolibri.de/veranstaltungen/20.07.16/literaturkritik-und-weltliteratur--/1663884.html"},{"location":{"lat":"51.28086","lon":"6.74006","street":"Niederrheinstr. 182","zip":"40474","city":"Düsseldorf","country":"DE","name":"Café Startklar"},"name":"Mord und andere schlimme Dinge","description":"Lesung mit Sibyl Quinke, Bruno Woda und Chrizz B.Reuer","category":"Vortrag & Lesung","time_start":"2016-07-20T19:00:00+0200","photo":[],"website":"http://www.coolibri.de/veranstaltungen/20.07.16/mord-und-andere-schlimme-dinge--/1657397.html"},{"location":{"lat":"51.47838","lon":"7.2139","street":"Humboldtstr. 40","zip":"44787","city":"Bochum","country":"DE","name":"Zukunftsakademie"},"name":"Was glaubt Ihr denn?","description":"Lesung mit Björn Bicker","category":"Vortrag & Lesung","time_start":"2016-07-20T20:00:00+0200","photo":[],"website":"http://www.coolibri.de/veranstaltungen/20.07.16/was-glaubt-ihr-denn---/1676594.html"},{"location":{"lat":"51.568113","lon":"7.300057","street":"Ahornstraße","zip":"44577","city":"Castrop-Rauxel","country":"DE","name":"Turnhalle"},"name":"Casterix-Mobil","description":"Ferienprogramm","category":"Für Kinder","time_start":"2016-07-20T10:00:00+0200","time_end":"2016-07-20T16:00:00+0200","photo":[],"website":"http://www.coolibri.de/veranstaltungen/20.07.16/casterix-mobil--/1692640.html"},{"location":{"lat":"50.924451","lon":"6.94494","street":"Eifelstr. 33","zip":"50677","city":"Köln","country":"DE","name":"Metropol-Theater"},"name":"Des Kaisers neue Kleider","description":"nach Hans Christian Andersen, ab 4 J.","category":"Für Kinder","time_start":"2016-07-20T11:00:00+0200","photo":[],"website":"http://www.coolibri.de/veranstaltungen/20.07.16/des-kaisers-neue-kleider--/1680883.html"},{"location":{"lat":"51.21898","lon":"6.79654","street":"Bertha-von-Suttner-Platz 1","zip":"40227","city":"Düsseldorf","country":"DE","name":"Zentralbibliothek"},"name":"Die Prinzessin auf der Erbse","description":"Bilderbuchkino nach dem Märchen von H. C. Andersen, ab 4 J.","category":"Für Kinder","time_start":"2016-07-20T14:30:00+0200","photo":[],"website":"http://www.coolibri.de/veranstaltungen/20.07.16/die-prinzessin-auf-der-erbse--/1675095.html"},{"location":{"lat":"51.499552","lon":"7.258796","street":"Castroper Str. 67","zip":"44791","city":"Bochum","country":"DE","name":"Zeiss-Planetarium"},"name":"Dinos im Weltall","description":"ab 6 J.","category":"Für Kinder","time_start":"2016-07-20T10:00:00+0200","photo":[],"website":"http://www.coolibri.de/veranstaltungen/20.07.16/dinos-im-weltall--/1674029.html"},{"location":{"lat":"51.52589","lon":"7.67394","street":"Erlenweg 10","zip":"59423","city":"Unna","country":"DE","name":"Stadtteilzentrum Süd"},"name":"Eliot und Isabella","description":"mit dem Figurentheater Marmelock","category":"Für Kinder","time_start":"2016-07-20T15:00:00+0200","photo":[],"website":"http://www.coolibri.de/veranstaltungen/20.07.16/eliot-und-isabella--/1674026.html"},{"location":{"lat":"51.48924","lon":"7.06421","street":"Am Handwerkerpark 8–10","zip":"45309","city":"Essen","country":"DE","name":"Phänomania Erfahrungsfeld"},"name":"Ferienprogramm","description":"Experimentierstationen","category":"Für Kinder","time_start":"2016-07-20T13:00:00+0200","time_end":"2016-07-20T17:00:00+0200","photo":[],"website":"http://www.coolibri.de/veranstaltungen/20.07.16/ferienprogramm--/1686649.html"},{"location":{"lat":"51.499552","lon":"7.258796","street":"Castroper Str. 67","zip":"44791","city":"Bochum","country":"DE","name":"Zeiss-Planetarium"},"name":"Lillis Reise zum Mond","description":"Mondausflug, ab 4 J.","category":"Für Kinder","time_start":"2016-07-20T14:00:00+0200","photo":[],"website":"http://www.coolibri.de/veranstaltungen/20.07.16/lillis-reise-zum-mond--/1674033.html"},{"location":{"lat":"51.307189","lon":"6.857615","street":"Zum Blauen See","zip":"40878","city":"Ratingen","country":"DE","name":"Naturbühne Blauer See"},"name":"Neues vom Räuber Hotzenplotz","description":"Stück nach Otfried Preußler, ab 3 J.","category":"Für Kinder","time_start":"2016-07-20T15:30:00+0200","photo":[],"website":"http://www.coolibri.de/veranstaltungen/20.07.16/neues-vom-r%c3%a4uber-hotzenplotz--/1610490.html"},{"location":{"lat":"51.25984","lon":"7.15349","street":"Neuenteich 80","zip":"42107","city":"Wuppertal","country":"DE","name":"Müllers Marionettentheater"},"name":"Peter und der Wolf","description":"ab 4 J.","category":"Für Kinder","time_start":"2016-07-20T16:00:00+0200","photo":[],"website":"http://www.coolibri.de/veranstaltungen/20.07.16/peter-und-der-wolf--/1508489.html"},{"location":{"lat":"51.68364","lon":"7.88347","street":"Alter Grenzweg 2","zip":"59071","city":"Hamm","country":"DE","name":"Maximilianpark"},"name":"Rumpelfrosch im Glück","description":"mit dem Theater 1+1, ab 5 J.","category":"Für Kinder","time_start":"2016-07-20T15:00:00+0200","photo":[],"website":"http://www.coolibri.de/veranstaltungen/20.07.16/rumpelfrosch-im-gl%c3%bcck--/1682308.html"},{"location":{"lat":"51.117519","lon":"6.894672","street":"Geschwister-Scholl-Str. / Humboldtstr.","zip":"40789","city":"Monheim","country":"DE","name":"Bürgerpark Baumberg"},"name":"Spielplatzfest","description":"","category":"Für Kinder","time_start":"2016-07-20T15:00:00+0200","time_end":"2016-07-20T18:00:00+0200","photo":[],"website":"http://www.coolibri.de/veranstaltungen/20.07.16/spielplatzfest--/1690147.html"},{"location":{"lat":"51.49418","lon":"7.28912","street":"Werner Str. 92","zip":"44791","city":"Bochum","country":"DE","name":"Zazie"},"name":"After Work","description":"mit Musik","category":"Und sonst","time_start":"2016-07-20T18:00:00+0200","photo":[],"website":"http://www.coolibri.de/veranstaltungen/20.07.16/after-work--/1672624.html"},{"location":{"lat":"51.229984","lon":"6.775092","street":"Ritterstr. 45","zip":"40213","city":"Düsseldorf","country":"DE","name":"kunstakademie.gallery"},"name":"ART after work","description":"Kunst & Gespräche","category":"Und sonst","time_start":"2016-07-20T18:00:00+0200","photo":[],"website":"http://www.coolibri.de/veranstaltungen/20.07.16/art-after-work--/1685107.html"},{"location":{"lat":"51.43149","lon":"7.00559","street":"Girardetstr. 21","zip":"45131","city":"Essen","country":"DE","name":"Villa Rü"},"name":"Auch mit den Augen hören","description":"Jazzfilme „Cool: Miles Davis 1957 + 67“ & „Funky: Eddie Harris/Les McCann 1969 + C. Adderley 1962“","category":"Und sonst","time_start":"2016-07-20T19:30:00+0200","photo":[],"website":"http://www.coolibri.de/veranstaltungen/20.07.16/auch-mit-den-augen-h%c3%b6ren--/1657396.html"},{"location":{"lat":"51.49179","lon":"7.4744","street":"An der Buschmühle 3","zip":"44139","city":"Dortmund","country":"DE","name":"Westfalenpark"},"name":"Die Frau in Gold","description":"Spielfilm von Simon Curtis, ab 6 J.","category":"Und sonst","time_start":"2016-07-13T00:00:00+0200","photo":[],"website":"http://www.coolibri.de/veranstaltungen/20.07.16/die-frau-in-gold--/1674023.html"},{"location":{"lat":"51.19326","lon":"7.01044","street":"","zip":"42781","city":"Haan","country":"DE","name":"Neuer Markt"},"name":"Haaner Sommer","description":"Mitsingkonzert mit den HaanerSommerAllStars (17.00) + Project „Sans Frontiers“ (18.00) + Kurzfilm zu Dieter Hallervorden (21.30) + Open-Air-Kino „Honig im Kopf“ (22.00)","category":"Und sonst","time_start":"2016-07-20T17:00:00+0200","photo":[],"website":"http://www.coolibri.de/veranstaltungen/20.07.16/haaner-sommer--/1678277.html"},{"location":{"lat":"51.19326","lon":"7.01044","street":"am Neuen Markt","zip":"42781","city":"Haan","country":"DE","name":"Schillerpark"},"name":"Honig im Kopf","description":"Spielfilm von Til Schweiger, ab 6 J., Rahmenprogramm: Volkslieder aus der Reihe „Mundorgel“ + Kurzfilm „Dieter Hallervorden. Komödiant“ von Rüdiger Daniel","category":"Und sonst","time_start":"2016-07-13T00:00:00+0200","photo":[],"website":"http://www.coolibri.de/veranstaltungen/20.07.16/honig-im-kopf--/1685801.html"},{"location":{"lat":"51.48099","lon":"6.78346","street":"Emscherstr. 71","zip":"47137","city":"Duisburg","country":"DE","name":"Landschaftspark Nord"},"name":"Ich bin dann mal weg","description":"Spielfilm von Julia von Heinz, o.A.","category":"Und sonst","time_start":"2016-07-20T21:45:00+0200","photo":[],"website":"http://www.coolibri.de/veranstaltungen/20.07.16/ich-bin-dann-mal-weg--/1680884.html"},{"location":{"lat":"51.45009","lon":"6.64229","street":"Homberger Str. 107","zip":"47441","city":"Moers","country":"DE","name":"Bollwerk 107"},"name":"Kickertreff","description":"","category":"Und sonst","time_start":"2016-07-20T20:00:00+0200","photo":[],"website":"http://www.coolibri.de/veranstaltungen/20.07.16/kickertreff--/1657398.html"},{"location":{"lat":"51.47273","lon":"6.84654","street":"Am Förderturm 27","zip":"46049","city":"Oberhausen","country":"DE","name":"Druckluft"},"name":"Kleiderbar","description":"tauschen, verschenken, freuen","category":"Und sonst","time_start":"2016-07-20T19:00:00+0200","photo":[],"website":"http://www.coolibri.de/veranstaltungen/20.07.16/kleiderbar--/1669204.html"},{"location":{"lat":"51.53464","lon":"7.68542","street":"Rio-Reiser-Weg 1","zip":"59423","city":"Unna","country":"DE","name":"Lindenbrauerei"},"name":"Ohrwurmsingen","description":"","category":"Und sonst","time_start":"2016-07-20T19:30:00+0200","photo":[],"website":"http://www.coolibri.de/veranstaltungen/20.07.16/ohrwurmsingen--/1668645.html"},{"location":{"lat":"50.901993","lon":"7.075877","street":"Rudolf-Diesel-Str. 36","zip":"51149","city":"Köln","country":"DE","name":"Autokino Porz"},"name":"Porzer Mittwochs-Trödelmarkt","description":"","category":"Und sonst","time_start":"2016-07-20T08:00:00+0200","time_end":"2016-07-20T14:00:00+0200","photo":[],"website":"http://www.coolibri.de/veranstaltungen/20.07.16/porzer-mittwochs-tr%c3%b6delmarkt--/1676596.html"},{"location":{"lat":"51.23108","lon":"6.76462","street":"","zip":"40545","city":"Düsseldorf","country":"DE","name":"Rheinwiesen Oberkassel"},"name":"Rheinkirmes","description":"","category":"Und sonst","time_start":"2016-07-20T14:00:00+0200","time_end":"2016-07-21T01:00:00+0200","photo":[],"website":"http://www.coolibri.de/veranstaltungen/20.07.16/rheinkirmes--/1666468.html"},{"location":{"lat":"51.57811","lon":"8.1036","street":"Bahnhofstr. 2","zip":"59494","city":"Soest","country":"DE","name":"Innenstadt"},"name":"SoestART 2016","description":"Anm. d. Red.: Genaue Uhrzeiten und Termine finden Sie unter: www.soestart.de","category":"Und sonst","time_start":"2016-07-20T10:00:00+0200","time_end":"2016-07-20T16:00:00+0200","photo":[],"website":"http://www.coolibri.de/veranstaltungen/20.07.16/soestart-2016--/1620904.html"},{"location":{"lat":"51.42929","lon":"6.99809","street":"Norbertstr. 2","zip":"45131","city":"Essen","country":"DE","name":"Grugahalle"},"name":"Sommerfest","description":"","category":"Und sonst","time_start":"2016-07-20T14:00:00+0200","time_end":"2016-07-20T22:00:00+0200","photo":[],"website":"http://www.coolibri.de/veranstaltungen/20.07.16/sommerfest--/1616602.html"},{"location":{"lat":"51.385906","lon":"6.812911","street":"Vor dem Tore 76","zip":"47279","city":"Duisburg","country":"DE","name":"Anne Tränke"},"name":"Spieleabend","description":"","category":"Und sonst","time_start":"2016-07-20T20:00:00+0200","photo":[],"website":"http://www.coolibri.de/veranstaltungen/20.07.16/spieleabend--/1670094.html"},{"location":{"lat":"51.26379","lon":"7.14668","street":"Gathe 6","zip":"42107","city":"Wuppertal","country":"DE","name":"Alte Feuerwache"},"name":"The Big Short","description":"Spielfilm von Adam McKay","category":"Und sonst","time_start":"2016-07-20T22:00:00+0200","photo":[],"website":"http://www.coolibri.de/veranstaltungen/20.07.16/the-big-short--/1670095.html"},{"location":{"lat":"51.59497","lon":"7.20383","street":"Herner Str. 184","zip":"45657","city":"Recklinghausen","country":"DE","name":"Saatbruchgelände an der Vestlandhalle"},"name":"Trödelmarkt","description":"","category":"Und sonst","time_start":"2016-07-20T06:00:00+0200","time_end":"2016-07-20T14:00:00+0200","photo":[],"website":"http://www.coolibri.de/veranstaltungen/20.07.16/tr%c3%b6delmarkt--/1669205.html"},{"location":{"lat":"51.537911","lon":"7.478972","street":"","zip":"44145","city":"Dortmund","country":"DE","name":"Hildastraße"},"name":"Trödelmarkt","description":"","category":"Und sonst","time_start":"2016-07-20T07:00:00+0200","time_end":"2016-07-20T14:00:00+0200","photo":[],"website":"http://www.coolibri.de/veranstaltungen/20.07.16/tr%c3%b6delmarkt--/1565258.html"},{"location":{"lat":"51.23371","lon":"6.77216","street":"Ehrenhof 2","zip":"40479","city":"Düsseldorf","country":"DE","name":"NRW-Forum Kultur und Wirtschaft"},"name":".ftlbr #03 – Ralf Brueck","description":"","category":"Ausstellung","time_start":"2016-06-25T00:00:00+0200","time_end":"2016-08-21T00:00:00+0200","photo":[],"website":"http://www.coolibri.de/veranstaltungen/20.07.16/-ftlbr-03-ralf-brueck--/1611609.html"}]}